,Date_time,city,state/province,country,UFO_shape,length_of_encounter_seconds,described_duration_of_encounter,description,date_documented,latitude,longitude
0,11/1/2013 17:30,liberty lake,wa,us,circle,3600,1 hour,Bright light.  ((NUFORC Note:  Sighting of Venus&#44 we suspect.  PD)),11/11/2013,47.6483333,-117.0913889
1,10/12/2013 15:00,st. louis,mo,us,formation,900,15+ minutes,Cluster of silver orbs fading in and out of view.,10/23/2013,38.6272222,-90.1977778
2,6/21/2013 22:50,macomb,mi,us,disk,2700,45 minutes,My wife and I were sitting on our deck (which faces south) and about 2250 I noticed a red round object in the air.,7/3/2013,42.7008333,-82.9591667
3,3/11/2006 11:00,carthage,tx,us,circle,600,5-10minutes,Shooting star streaks and then changes direction.,5/15/2006,32.1572222,-94.3372222
4,9/12/2010 04:30,stow,oh,us,triangle,900.0,15 min,bright lights hoovering over stow ohio,11/21/2010,41.1594444,-81.4405556
5,2/13/2002 21:00,baltimore county,md,us,light,2,seconds,Blue ball of light flashed across the sky in Northwestern Baltimore County&#44 Maryland.,3/19/2002,39.2902778,-76.6125
6,3/1/2011 19:45,waterbury,ct,us,unknown,180,3 minutes,3 triangle lights,3/10/2011,41.5580556,-73.0519444
7,12/19/2005 12:00,atlanta,ga,us,cylinder,600,10 minutes,dark&#44 smokestack like objects jutting above clouds&#44 seen from an airplane,2/14/2006,33.7488889,-84.3880556
8,5/11/2009 22:30,deltona,fl,us,light,120,2 minutes,Bright White light with large flash as it moved overhead.,5/12/2009,28.9002778,-81.2638889
9,10/6/2012 21:00,downingtown,pa,us,light,120,2 minutes,Silent red light flies and disappears over neighborhood,10/30/2012,40.0063889,-75.7036111
10,4/9/2011 22:28,burlington (canada),on,ca,formation,180,3 minutes,Formation of lights moving across the night sky&#44 burlington&#44 ont&#44can.,5/2/2011,43.316667,-79.8
11,12/22/2007 21:30,peoria,az,us,unknown,300,5 minutes,5 white dots racing upwards from downtown Phoenix area&#44 moving at different speeds&#44 then fading in to the night,3/4/2008,33.5805556,-112.2366667
12,1/9/2004 23:00,laguna hills,ca,us,light,21600,6 hours&#44 2 nights,Revolving light seen under moon two nights in a row.,1/17/2004,33.6125,-117.7119444
13,1/31/2009 18:40,fort wayne,in,us,circle,3600,1 hour,Red&#44 blue&#44 green&#44 and white lights flashing from a circular craft.  ((NUFORC Note:  Object may have been Sirius.  PD)),3/19/2009,41.1305556,-85.1288889
14,4/29/2007 21:45,boonsboro,md,us,rectangle,120,2 minutes,Square lights above South Mountain in Boonsboro&#44 MD at 21:45.,6/12/2007,39.5061111,-77.6527778
15,5/19/2012 21:45,detroit,mi,us,circle,14400,4 hr,3 craft hover over metro detroit from 9:45 pm 11:45pm and longer.  ((NUFORC Note:  Possible star?  PD)),5/29/2012,42.3313889,-83.0458333
16,6/28/2003 23:12,new york city (brooklyn),ny,us,disk,360,6 minutes,A friend and I saw a round domed object metallic in appearance and rather large with lights located around the bottom edges and top.,7/16/2003,40.7141667,-74.0063889
17,1/1/2009 01:10,bradenton,fl,us,fireball,60,1 minute,4 Orange/red balls of light flying through the sky,1/10/2009,27.4986111,-82.575
18,6/18/2004 18:31,philadelphia,pa,us,disk,30,30 seconds,Silver disc with indented center,6/23/2004,39.9522222,-75.1641667
19,8/23/2007 22:00,pompano beach,fl,us,sphere,1.3,1.3 seconds,Possible meteorite fragment or space debris visible above southern sky in Pompano Beach&#44 Florida.,10/8/2007,26.2375,-80.125
20,2/4/2009 20:00,earp,ca,us,formation,15,15 seconds,A momentary string of orange-yellow lights near CA-AZ border.,3/19/2009,34.1647222,-114.3002778
21,9/11/2006 22:55,newtown square,pa,us,fireball,6.0,6 seconds,I am employed as a security guard at a corporate campus in Newtown Square PA&#44 30 miles west of Philadelphia.  I arrived at work tonight,10/30/2006,39.9866667,-75.4013889
22,8/28/2010 20:00,los angeles,ca,us,other,300.0,5 minutes,Explanation of possible sightings in Los Angeles,8/30/2010,34.0522222,-118.2427778
23,9/22/2005 19:30,yorba linda,ca,us,triangle,120.0,2 minutes,((NUFORC Note:  Vandenberg AFB missile launch.  PD))  Boomerang shaped object with bright light emanating from the rear of the craft.,10/11/2005,33.8886111,-117.8122222
24,6/26/2013 00:00,escalon,ca,us,light,1200,20 minutes,6/25/13 about midnight.Looking out my window toward the south&#44 I saw what appeared to be two stars side by side.  These were much l,7/3/2013,37.7975,-120.9955556
25,9/15/1965 15:00,indianapolis,in,us,egg,20.0,20 seconds,Zig Zagging Egg in daytime,5/24/2005,39.7683333,-86.1580556
26,11/1/2007 20:00,pleasanton,ca,us,disk,180,3 minutes,One slow moving Illuminated Saucer Shaped craft seen about 50 ft. above the tree-line moving in a southeast direction.,11/28/2007,37.6625,-121.8736111
27,10/24/2005 22:50,miami,fl,us,triangle,600,5-10 mins.,Triangular Object spotted over Miami after powerful Hurricane&#44,3/11/2006,25.7738889,-80.1938889
28,9/26/2008 19:30,bay minette,al,us,light,90.0,1 to 1.5 minutes,Bright light&#44 appeard to be falling star in Southern Sky&#44 fell then stopped&#44 ocillated&#44 changed direction and accelerated out of sight.,10/31/2008,30.8827778,-87.7730556
29,5/20/1997 15:00,north pole,ak,us,unknown,10,10 seconds,Strange noisy craft in North Pole,5/24/2005,64.7511111,-147.3494444
30,6/12/2013 21:00,pawleys island,sc,us,formation,20,20 seconds,4 orange lights.,7/3/2013,33.4330556,-79.1216667
31,7/28/2005 00:15,panoche,ca,us,diamond,300,5 min.,Low flying object with four bright lights in a diamond pattern,9/2/2005,36.5969444,-120.8325
32,7/23/2002 22:30,avalon,ca,us,triangle,30,30sec.,Very&#44 very&#44 big slow flying Triangle with flasing red lights covering the outside edge of each of the two wings that made up the Triang,8/16/2002,33.3427778,-118.3269444
33,9/3/1998 03:00,crescent city (100 miles south of),ca,us,formation,240.0,4 min - good stare,5 points of light&#44 quite distant&#44 looked to be playing&#44having fun.,4/2/1999,41.7561111,-124.2005556
34,2/9/1997 13:45,seattle,wa,us,oval,240,4 minutes,Three objects over downtown Seattle&#44 early morning,1/31/2004,47.6063889,-122.3308333
35,5/15/2005 20:30,whittemore,mi,us,unknown,60,half hour,Sightings in iosco county michigan by 4 diffrent people,6/20/2005,44.2336111,-83.8030556
36,7/20/2005 15:15,exeter,nh,us,cigar,600,10 minutes,Gigantic Cigar,9/2/2005,42.9813889,-70.9483333
37,4/20/2007 21:19,wynnewood,pa,us,triangle,120,2 min,No sound and had no apparent windows,4/27/2007,40.0027778,-75.2711111
38,8/14/2002 19:30,leeds,me,us,circle,300.0,5 minutes,Orb against the setting sun.,7/16/2006,44.3033333,-70.12
39,11/28/2005 04:35,apex,nc,us,triangle,120,2 minutes,Driving North on Route 55 in Apex&#44 NC.  I noticed a triangular light pattern&#44 I thought it was an airplane heading directly at me.  As,3/4/2008,35.7325,-78.8505556
40,7/25/2002 20:50,summerfield,fl,us,sphere,5,maybe 5 sec,3 balls of light,7/26/2002,29.0083333,-82.035
41,6/23/2007 22:20,north pownal,vt,us,oval,180,3 minute,The object traveled in a direct path.,8/7/2007,42.7975,-73.265
42,11/1/1993 23:45,albuquerque,nm,us,cigar,600,10 min.,A colorful object was hovering over the Petroglyphs&#44 which backed up to my back yard&#44 and it had no sound.,4/2/1999,35.0844444,-106.6505556
43,4/5/2010 18:45,lynn,ma,us,circle,30,30 seconds,I seen a bright white circular object moving to the left&#44 right&#44 zig-zag&#44 and circular motions.,4/13/2010,42.4666667,-70.95
44,6/18/2001 16:50,new york city,ny,us,cigar,900,15 mins,Star-like object in blue New York City sky.,8/5/2001,40.7141667,-74.0063889
45,1/29/2009 19:30,glastonbury,ct,us,circle,3,2-3 secs,I looked east and saw a rather large circular pale blue light in the sky and then it just streaked off  with the speed of a fireball,3/19/2009,41.7122222,-72.6086111
46,10/14/2012 19:00,loveland,co,us,triangle,30,30 seconds,Classic five lighted triangle shaped UFO sighting,10/30/2012,40.3977778,-105.0744444
47,12/26/2013 04:30,st. louis,mo,us,circle,15,15 seconds,Let my dog outside&#44 when trying to get dog back inside Green object with blinking green light and white lite did nose dive and then van,1/10/2014,38.6272222,-90.1977778
48,4/13/2003 21:00,greenville,ga,us,unknown,60,1 minute,sightings of Numerous UFO&#39s,6/10/2003,33.0286111,-84.7130556
49,1/17/2013 21:45,denver,pa,us,triangle,300,5 minutes,Triangular UFO hovering over Lancaster&#44 PA.,2/4/2013,40.2330556,-76.1375
50,5/9/2002 07:00,knolls,ut,us,light,3600,1 hour,ON I80 HEADED EASTBOUND--SALT FLATS AREA-- BEAMS OF LIGHT OR ENERGY COMING FROM A STATIONARY BRILLIANT STAR-LIKE SHAPE  200 FEET ABOVE,5/14/2002,40.7230556,-113.2888889
51,8/20/2006 04:00,hampton,mn,us,triangle,180.0,3 minutes,TRIANGULAR CRAFT HOVERING AT HAMPTON&#44 MINNESOTA - 04:00 AUGUST 2006,2/1/2007,44.6102778,-93.0019444
52,10/5/1995 21:30,slidell,la,us,formation,600,10min,Appeared to be a formation of sorts at first; 1500-2500&#39 feet off the surface; 1/2-3/4 mile in length E-W&#44 1/4 mile wide N-S; over Lake,5/24/1999,30.275,-89.7811111
53,8/17/2006 10:30,eastpointe,mi,us,disk,300.0,5 minutes,High altitude bright light changing color and intensity and a dim low saucer shape  over SE Macomb County .,10/8/2007,42.4683333,-82.9555556
54,4/16/2011 05:30,littleton,co,us,disk,2,2 seconds,I witnessed a shadowy disk in the afternoon sky and also have a photo of a the disk in early morning.,8/7/2011,39.6133333,-105.0161111
55,1/27/2009 06:00,christiansburg,va,us,triangle,60,around a minute,Low flying triangle obeject  moving at a slow speed,3/19/2009,37.1297222,-80.4091667
56,11/4/2006 18:30,durango,co,us,light,120,approx 2 minutes,bright white light in night sky.,3/4/2008,37.2752778,-107.8794444
57,3/21/2004 20:30,lewistown,mt,us,fireball,180,3 minutes,Object with blueish tail impacts NW of Lewistown Montana,3/23/2004,47.0625,-109.4275
58,9/6/2002 22:50,rodney (canada),on,ca,light,240.0,4 minutes,Southwestern Ontario sighting,9/13/2002,42.566667,-81.683333
59,1/21/2012 21:48,jacksonville,fl,us,fireball,300,4-5 minutes,Numerous (I5-20) solid red-orange flare-like lights over Jacksonville in about a 2 minute period.,1/24/2012,30.3319444,-81.6558333
60,7/27/2013 20:42,woods hole,ma,us,fireball,60,about a minute,Orange light crossing sky,8/30/2013,41.5263889,-70.6736111
61,3/2/2013 19:00,montrose,co,us,oval,300,5 minutes,2 Glowing&#44 super fast moving orbes in the western colorado sky on march 2nd  2013.,5/15/2013,38.4783333,-107.8755556
62,6/24/2000 12:50,federal way,wa,us,sphere,60,1 minute,Two black round shaped objects heading sw equidistant from each other moving rather slowly under high storm cloud cover then seeming to,7/11/2000,47.3225,-122.3113889
63,9/1/1999 21:30,vacaville,ca,us,triangle,300.0,3-5 min,The object was considerably larger then a C-5&#44 and was irregular in shape.  As it was clear the object did have a surface mass he descr,10/2/1999,38.3566667,-121.9866667
64,3/27/2005 23:05,cedar falls,ia,us,light,600,10min,lights cedar falls,4/16/2005,42.5277778,-92.4452778
65,9/18/2003 22:48,seattle (leschi),wa,us,sphere,60.0,60 sec.,Woman and daughter hear&#44 and see&#44 a very brightly lighted&#44 spherical &quot;ball of light&quot; move across Lake Washington.,9/28/2003,47.6063889,-122.3308333
66,6/10/2008 16:05,north windham,ct,us,cigar,180,3 min.,Cigar shaped ufo &#44 anyone in Windham area seen ufos??,6/12/2008,41.7494444,-72.155
67,9/16/2001 20:15,new york city,ny,us,circle,1.0,1 second,A diving white ball of light&#44 headed North.,10/12/2001,40.7141667,-74.0063889
68,2/10/2006 23:50,south plainfield,nj,us,formation,420,4-7 minutes,Bright lights in a triangular formation that did not move,3/11/2006,40.5791667,-74.4119444
69,9/22/1999 21:30,wharton,oh,us,triangle,180.0,3 min,while driving home from a football game&#44 my family and i saw 3 lights on the horizon,10/2/1999,40.8613889,-83.4616667
70,5/24/1998 22:40,asbury park,nj,us,cigar,120,2 min,Green/Blue Cigar shaped craft seen travelling south to north&#44 along coastline. Craft  was then seen rising slowly north of Convention H,11/21/1998,40.2202778,-74.0125
71,4/21/2010 21:30,kirkland,wa,us,rectangle,15,15 seconds,I saw a very long object&#44 with three white lights spaced evenly apart. It was far too long to be an airplane&#44 it made no noise whatsoev,5/12/2010,47.6816667,-122.2075
72,7/13/2012 21:15,north versailles,pa,us,light,300,5 minutes,Several dozen orange lights in the sky over North Versailles Pa on July 13&#44 2012&#44 around 21:15 hours,8/5/2012,40.3797222,-79.8097222
73,9/20/1996 17:00,coweta,ok,us,disk,18000.0,5 hours,I am providing approx. time and dates. I was out our home in the county line road between Coweta and Broken Arrow Oklahoma. I had stepp,10/27/2004,35.9516667,-95.6505556
74,4/14/2005 22:00,hayward,ca,us,triangle,20,20 seconds,A triangle craft with five glowing circles passes in front of Jupiter.,4/16/2005,37.6688889,-122.0797222
75,7/7/2006 00:30,scottsdale,az,us,light,120,2 minutes,2 BRIGHT LIGHTS AND ONE WAS STATIONARY WHILE THE OTHER WAS MOVING ALL OVER.,7/16/2006,33.5091667,-111.8983333
76,8/1/1964 20:00,charlestown,ri,us,light,3,3 seconds,While camping at the Burlingame State Park&#44 Charlestown&#44 RI&#44 in August of 1964&#44 my friend&#44 Tommy&#44 and I were looking over the pond at t,2/16/1999,41.3830556,-71.6422222
77,8/18/2000 20:00,zortman,mt,us,other,7200.0,2 hours,Object able to change its direction at anytime without having to slow down.  Very erratic behavior,9/17/2000,47.9177778,-108.5255556
78,12/23/1994 21:00,sloatsburg,ny,us,unknown,30,30 seconds,Bright white light too big to be a helicopter hovering over trees&#44 in a blinks eye it shot up into sky.,5/13/2012,41.1544444,-74.1933333
79,6/19/1998 16:00,tucson,az,us,unknown,10,10 seconds,Weird Light Beam,5/24/2005,32.2216667,-110.9258333
80,8/1/2008 22:00,park ridge,il,us,oval,60,1:00 minute,((HOAX??))  2 Huge White Orbs...moving slowly...at different directions...Chicago&#44 IL,8/12/2008,42.0111111,-87.8405556
81,5/9/2005 22:20,austin,tx,us,cigar,2,a few seconds,Long line of green rectangular lights in the hills of southwest Austin,11/8/2005,30.2669444,-97.7427778
82,1/31/2014 20:00,decatur,ga,us,triangle,300,5 minutes,Triangle of lights&#44 spinning counterclockwise&#44 in sync. hovering. no sound. center lit up.,2/7/2014,33.7747222,-84.2963889
83,7/17/2003 02:00,windsor (canada),on,ca,circle,2400,40 minutes,A bright pulsating white light  near the moon....,7/23/2003,45.583333,-72.0
84,1/12/1980 23:00,orinda,ca,us,sphere,2400,40 minutes,My house was on the golf course  i became very uneasy and had butterflys in my stomache  I picked up a firearm  before the sighting a s,2/8/2005,37.8772222,-122.1786111
85,7/9/2010 23:55,leetsdale,pa,us,sphere,300,5 minutes,Pulsating red sphere that came out of no where.,7/19/2010,40.5630556,-80.2086111
86,5/1/1994 22:00,great falls,mt,us,sphere,300,about 5 minuts,Ghost like bright sphere wobleing and hovering and folwoing me,12/12/2011,47.5002778,-111.3
87,4/16/2003 00:00,cement city,mi,us,triangle,300,5 minutes,i saw a triangular shaped craft with lights at each angle then flew away.,4/22/2003,42.07,-84.3305556
88,3/12/2011 17:45,englewood,fl,us,disk,600,10 min.,Sunny South West Florida,3/23/2011,26.9616667,-82.3527778
89,10/1/2007 19:00,beulaville,nc,us,triangle,5,5 sec,Green Glowing Triangular Craft,10/31/2008,34.9236111,-77.7741667
90,9/22/2013 20:20,sacramento,ca,us,formation,600.0,10 minutes,Orange lights in the sky over Sacramento&#44 CA.,9/30/2013,38.5816667,-121.4933333
91,2/24/2004 18:43,tucson,az,us,circle,300,3 to 5 min,Circlular rotating lighted low flying craft west of Ina at Silverbell Rd&#44 object moved slowly then instantly disappeared.,3/2/2004,32.2216667,-110.9258333
92,3/23/1996 20:58,salinas,ca,us,light,50,50 sec.,Young man and girlfriend see 2 tiny&#44 distinctly pink-colored points of light streaking from N to S in W sky.  Moved oddly&#44 &quot;floated.&quot;,11/2/1999,36.6777778,-121.6544444
93,1/14/2002 19:15,alexandria,la,us,formation,60,>1 min.,Row of lights over city,1/29/2002,31.3111111,-92.445
94,8/4/2012 21:05,warrington,pa,us,fireball,30.0,30 seconds,3 red fireballs/orbs witnessed in Warrington Bucks County PA,8/19/2012,40.2491667,-75.1344444
95,4/10/2009 13:00,lake charles,la,us,light,10,about 10 seconds,single white light high above Louisiana swamps,12/12/2009,30.2263889,-93.2172222
96,1/6/2003 04:00,moundville,al,us,egg,109800,3 1/2 hrs,twp egg shaped objects with lights moving in z pattern...batteries and lights on our vehicles stooped when object approched us.,3/21/2003,32.9975,-87.63
97,11/15/1977 22:30,kalamazoo,mi,us,disk,120,2 min,Close encounter near Kalamazoo,10/20/2005,42.2916667,-85.5872222
98,9/10/2009 20:37,youngsville,ny,us,light,120.0,2 min,Color changing object that hovered for 1-2 minutes&#44  then faded away.,12/12/2009,41.8083333,-74.8866667
99,1/25/2010 19:00,naples,fl,us,light,60,1 min,Amber light floats over Naples UFO or ???,2/14/2010,26.1416667,-81.795
100,3/30/2012 04:00,boston,ma,us,unknown,300,5 minutes,Dark shape landed on roof top&#44 than flew away as bright light&#44 no sound.,9/24/2012,42.3583333,-71.0602778
101,1/6/2014 16:30,glenmoore,pa,us,formation,60,1 minute,Orange lights that flew in formation.,1/24/2014,40.0888889,-75.7722222
102,10/5/2013 20:00,nashville,tn,us,circle,30,30 seconds,Two bright star-ish lights moving parallel over Nashville sky.,10/14/2013,36.1658333,-86.7844444
103,10/24/2003 16:00,hollywood,fl,us,disk,60,less than 1min,Devins clouds  an uncexpected sighting,10/31/2003,26.0108333,-80.1497222
104,9/23/1998 21:10,tacoma (southwest of),wa,us,fireball,5.0,5 sec.,At 10 min. after 9pm  I was facing to the south during my lunch break when I saw a fireball with a green tail traveling east to west at,9/26/1998,47.2530556,-122.4430556
105,11/17/2012 01:00,hicksville,ny,us,light,3,3 seconds,White round light with a trail shoots down and disappears,11/19/2012,40.7683333,-73.5255556
106,6/22/2010 12:30,fairborn,oh,us,circle,120,1-2 minutes,V shape of orange lites in the sky,7/6/2010,39.8208333,-84.0194444
107,6/29/2013 20:38,stanton,ia,us,sphere,90,90 seconds,Solid Sphere observed over Viking Lake State Park.,7/3/2013,40.9816667,-95.1038889
108,1/5/2000 09:50,exton,pa,us,cylinder,6,6 second,3 cylinder objects moving east to west&#44 9:50 am&#44 no sound&#44 white with two rings in black on each craft. No wings visible.,1/7/2000,40.0288889,-75.6211111
109,1/10/2012 22:00,athens,il,us,triangle,120,2 minutes,Triangular UFO turns into 2.,2/27/2014,39.9608333,-89.7238889
110,2/23/2006 00:45,chanute,ks,us,other,120,several minutes,the object did not emit other object[error],3/11/2006,37.6791667,-95.4569444
111,4/15/2002 21:00,imperial,ca,us,light,1200,approx. 20 minutes,Lights along the desert mountains,4/25/2002,32.8475,-115.5686111
112,2/1/2005 09:25,kent,wa,us,sphere,180,3 min,This was a spherical object adjacent to an airplane contrail,2/8/2005,47.3811111,-122.2336111
113,12/23/2002 04:00,rehoboth beach,de,us,disk,1800,30 minutes,fACING TO THE sOUTHEAST A VERY BRIGHT OBJECT HIGH IN THE SKY HOVERING OVER PROBABLY THE OCEAN AND i WATCHED IT MOVE HIGHER IN THE SKY D,12/23/2002,38.7208333,-75.0763889
114,6/28/2011 17:10,browns mills,nj,us,teardrop,30,30 seconds,teardrop shape,7/4/2011,39.9725,-74.5833333
115,6/10/2007 22:24,myrtle beach,sc,us,triangle,1800,30 minutes,Bright glowing triangular object with red flash moving erratically in a fixed point.,6/12/2007,33.6888889,-78.8869444
116,8/21/2004 23:00,tinley park,il,us,light,1800.0,30 minutes,3 bright red lights hovering for 30 minutes,8/24/2004,41.5733333,-87.7844444
117,2/3/1998 18:50,portage,mi,us,sphere,60.3,1min.30sec,Two white balls of light about 30sec apart going ENE Very bright traveling in the same path,1/28/1999,42.2011111,-85.58
118,6/20/1985 14:00,salem,nh,us,sphere,2,seconds,Multi colored sphere like in,7/16/2006,42.7883333,-71.2013889
119,7/5/2011 00:38,fresno,ca,us,triangle,1200,20 minutes,Strange lights/UFO&#39s over Fresno&#44Ca near the airport.,7/17/2011,36.7477778,-119.7713889
120,1/12/2014 19:30,rochester,ny,us,light,120,2 minutes,At approximately 7:30 pm &#44 my wife and I witnessed an orange glow in the southwest sky. The glow became larger as it got closer.  There,1/16/2014,43.1547222,-77.6158333
121,7/21/2000 18:00,chula vista,ca,us,other,180,3 min,Black&#44 shaped like a clover&#44 slowly rotating&#44 surrounded by what looked like heat waves.,7/29/2000,32.64,-117.0833333
122,7/11/2007 23:30,lincoln,mt,us,unknown,1500,25 minutes,Unknown lights and unexplained observation on Lewis and Clark Pass&#44 MT 11 July 2007,8/7/2007,46.955,-112.6808333
123,4/26/2009 22:15,bellevue,wa,us,cigar,60,1 min,While filming the crescent moon&#44 I noticed a cigar shaped shadow about 1/4 of the way down creep up and out of sight.,5/12/2009,47.6105556,-122.1994444
124,6/22/1996 22:30,buckhannon,wv,us,triangle,120,2minutes,A rather large triangular shaped disk was noticed about 800 yards away hovering at the level of tree tops.  Me and a friend began to ex,3/7/1998,38.9938889,-80.2322222
125,8/11/1978 22:00,auburn,ca,us,unknown,900,15 minutes,The object hovered and dissapeared then came back several times.,6/18/2004,38.8966667,-121.0758333
126,7/15/1992 01:30,duluth,mn,us,other,5,<5 sec.,luminous orange half-disk winks on then off,1/17/2004,46.7833333,-92.1063889
127,4/4/2004 01:00,antioch,ca,us,other,27,27sec,The thing look like oval shaped but not round.  ((NUFORC Note:  We are uncertain as to whether this is a serious report.  PD)),7/28/2010,38.005,-121.8047222
128,3/29/2013 20:42,greenbrier,ar,us,circle,300,5 minutes,20-30 bright orange circles in the sky.,5/15/2013,35.2338889,-92.3875
129,12/3/2012 17:00,little rock,ar,us,cigar,15,15 seconds,Cigar shaped light bulbs in the sky.,12/20/2012,34.7463889,-92.2894444
130,3/25/2000 18:00,the woodlands,tx,us,unknown,1081,18:01,Donuts on a rope smoke trail in the sky pointing west.,4/1/2000,30.1577778,-95.4891667
131,1/7/2007 21:30,shawnee,ok,us,light,120,1 1/2 minutes,Bright object with red light flashing across the sky in Shawnee&#44 Oklahoma,2/1/2007,35.3272222,-96.925
132,9/1/1991 15:00,tulsa,ok,us,rectangle,900.0,15 minutes,It was the size of a football field.,8/24/2004,36.1538889,-95.9925
133,1/7/1999 20:45,williamsport,pa,us,other,240,2-4 minutes,2 lights flying in &quot;formation&quot; blinking white/yellow&#44 then green/blue&#44 then red then joined and other white lights came in quickly to c,2/16/1999,41.2411111,-77.0013889
134,9/25/2008 01:00,warrensburg,mo,us,other,5.0,approx. 5 sec.,At approximately 1 am of Sept. 25th&#44 2008&#44 I saw an object in the sky that I was and am unable to identify.,10/31/2008,38.7627778,-93.7358333
135,9/11/2007 00:10,vancouver (canada),bc,ca,formation,300.0,5 minutes,4  bluish-white lights flying in fomation at very high altitude,10/8/2007,49.25,-123.133333
136,9/18/2010 21:44,merrillville,in,us,teardrop,3.0,2-3 seconds,One&#44 elongated teardrop shaped flying object about 13 feet high in the sky and maybe 500 ft away.,11/21/2010,41.4827778,-87.3327778
137,7/20/1998 21:00,pembroke pines,fl,us,triangle,120,2 mins,the triangle shaped craft had 5 bright white strobe lights.,7/23/2000,26.0027778,-80.2241667
138,8/20/2011 21:15,kansas city,ks,us,formation,20.0,15-20 seconds,8-16-2011 I saw a rectangular object like a 2-story building on its side not moving and 8-20-2011 8 orbs not moving were together.,10/10/2011,39.1141667,-94.6272222
139,9/26/1999 09:00,castlegar (canada),bc,ca,other,7200.0,throughout the day,HBCCUFO CANADIAN REPORT:  Chemtrail/contrail seemed to be coming from the bizarre looking craft or tank.,3/17/2004,49.316667,-117.666667
140,4/29/2008 23:00,buda,tx,us,triangle,6,6 seconds,A triangle shaped craft with brilliant lights flew over my house.,6/12/2008,30.085,-97.84
141,1/20/2012 20:00,manchester,nh,us,light,120,2 minutes aprox,A bright light falling from the eastern sky over the Merrimack River in Manchester&#44 NH.,1/24/2012,42.9955556,-71.4552778
142,2/27/2006 20:30,oak ridge,tn,us,fireball,10,10 seconds,3 Fireballs slowly crossing the night sky in Oak Ridge Tennessee.  About 10 seconds long.,3/11/2006,36.0102778,-84.2697222
143,7/12/2013 23:30,maplewood (st. louis),mo,us,other,60,1 minute,White Glowing&#44 size changing Orb sighted by 2 in Maplewood&#44 Mo.,7/14/2013,38.6125,-90.3244444
144,5/1/2006 00:00,kingsville,mo,us,other,300,5 minutes,On May 1&#44 2006&#44 about midnight&#44 I saw an object with alternating rectangualar white lights&#44 totally silent&#44 gliding close overhead.,5/15/2006,38.7430556,-94.0697222
145,1/13/2009 16:25,plano,il,us,changing,30,20-30 seconds,stationary small bright chrome light appeared then increased intensity then dissapeeared.,3/19/2009,41.6627778,-88.5369444
146,8/28/2011 02:00,rolla,mo,us,light,300.0,5 minutes,Star-like object with two faint blue lights moving together.,10/10/2011,37.9513889,-91.7711111
147,2/22/2014 04:00,southampton,ma,us,unknown,7200,1 1l2 hours,Cross of lights with streams at ends covering the center of my binocular&#39s field of vision.  Apparently stationary--moved with stars.,2/27/2014,42.2291667,-72.7305556
148,9/21/2011 20:15,canby,or,us,fireball,15.0,brief,large green fireball plummenting out of the sky,10/10/2011,45.2630556,-122.6913889
149,7/18/1981 22:00,mayfield,ny,us,cigar,30,30 seconds,cigar shaped brightly lit object&#44 hovered for 30 seconds and shot off to the north,8/24/2010,43.1044444,-74.2652778
150,3/29/2003 23:30,reno,nv,us,light,30,30 seconds,Bright light over rual Reno Area far from airports&#44 changed colors and appeared to be following at a rapid speed,5/2/2003,39.5297222,-119.8127778
151,12/31/2012 23:30,tempe,az,us,fireball,1800,30 minutes,Fireball shaped object flying from east to west then took a sharp turn south before heading back east then just disappears into the sky,2/4/2013,33.4147222,-111.9086111
152,2/6/2009 19:00,oakville,mo,us,triangle,60,1 minute,I seen a large craft hovering still about 1&#44000 feet away with 3 lights in the form of a wide obtuse triangle.,3/19/2009,38.47,-90.3044444
153,3/25/2010 18:00,colcord,ok,us,changing,120,2 minutes,strange lights in Oklahoma sky outside Siloam Springs Arkansas March 25&#44 2010,4/13/2010,36.2641667,-94.6927778
154,9/5/2001 21:30,healdsburg,ca,us,rectangle,900.0,15 min.,Not made in U. S. of A.,10/12/2001,38.6105556,-122.8680556
155,9/3/2011 22:00,mississauga (canada),on,ca,circle,120.0,2 minutes,I was looking up into the sky when I noticed a flying object over my street. It seemed very far away because I could see a plane flying,10/10/2011,43.15,-79.5
156,1/13/1999 07:15,rio rancho,nm,us,circle,3,2-3 seconds,Driving east from Rio Rancho into Albuquerque on Paseo Del Norte&#44 I viewed a perfectly lit circle above the Sandia Mountains.  The circ,2/16/1999,35.2333333,-106.6638889
157,9/22/2012 17:15,oakland,ca,us,changing,1800.0,30 minutes,Strange brights lights above Oakland Zoo,9/24/2012,37.8044444,-122.2697222
158,12/24/2011 22:00,boise,id,us,circle,1800,30 minutes,Bright red star at about 30 degrees above eastern horizon.  ((NUFORC Note:  Possibly Sirius?  PD)),1/12/2012,43.6136111,-116.2025
159,7/27/2008 03:00,honesdale,pa,us,triangle,3600,1 hour,many triangled shaped crafts hover over airport,8/12/2008,41.5766667,-75.2591667
160,10/17/2013 07:00,san jose,ca,us,other,5,5 seconds,Object&#44 large in nature&#44 with a bright white light tail entering the atmosphere in California.,10/23/2013,37.3394444,-121.8938889
161,8/12/1999 21:25,fresno,ca,us,unknown,3,3 sec,three lights traveling west to east&#44in a triangle formation&#44 or one large object&#44 very high and faster than anything I know of,8/30/1999,36.7477778,-119.7713889
162,11/18/1998 21:15,dunns mills,nj,us,disk,600,10 minutes,Well lighted disc craft lands off NJ Turnpike at Dunns Mills witnessed by two and exits off very fast.,2/23/2011,40.1291667,-74.6938889
163,7/31/2001 23:50,blanchester,oh,us,triangle,600,8-10 minutes,smooth&#44 rounded&#44 silent&#44 triangular object  following me...,8/5/2001,39.2930556,-83.9888889
164,3/21/1998 22:30,san antonio,tx,us,formation,1800,30 minutes,First 7 then up to a dozen lights at very high altitude darting around.,5/15/2006,29.4238889,-98.4933333
165,6/13/1996 22:45,temple,tx,us,diamond,5,4-5 sec,Diamond-shaped cluster of nonblinking white lights&#44 objects indistinct&#44 low altitude as planes ahd been flying overhead for an hour&#44 si,1/28/1999,31.0980556,-97.3425
166,2/1/2002 22:30,fitchville,ct,us,oval,60,1min,clear night about 2000 to 3000 feet in the sky two beams emitted from craft beam lenght uncertian but very bright  smaller beam disappe,2/22/2002,41.5647222,-72.1544444
167,8/10/2009 23:00,martinez,ca,us,oval,3600,1 hour,Red light over Conta Costa County,8/27/2009,38.0194444,-122.1330556
168,5/28/2006 23:30,adkins,tx,us,sphere,60,1 min,Bright blue sphere&#44 hovered then darted east and disappeared.,7/16/2006,29.3927778,-98.2369444
169,5/15/1953 16:00,toronto (canada),on,ca,disk,30,20-30 sec,3 discs in formation flipping into clouds and descending  out of them.,12/19/2003,43.666667,-79.416667
170,2/23/2006 00:45,goshen,in,us,other,37800,1 1/2 hrs,I don&#39t know what it was&#44 but we watched for 2 hrs&#33  I can&#39t wait to see if it happens again tonight&#33,3/11/2006,41.5822222,-85.8344444
171,11/2/2001 17:40,roseville,ca,us,light,120,2 minutes,Bright light over I-80 East at Douglas. The light shot horizontally toward the East leaving a trail of light and disappeared.,11/20/2001,38.7522222,-121.2869444
172,8/25/2001 23:59,oak harbor,wa,us,light,1800.0,30 minutes,Lights on Whidbey Island,10/12/2001,48.2933333,-122.6419444
173,10/11/2010 19:40,cottage grove,mn,us,light,240,3-4 minutes,Craft with two white lights in Minneapolis Approach Pattern that moved down and not forward then disappered behind the tree line.,11/21/2010,44.8277778,-92.9436111
174,7/14/2010 13:00,englewood,co,us,oval,540,9 min,I think about this almost every day and how lucky I was to witness this&#33 There really are ET&#39s,7/4/2012,39.6477778,-104.9872222
175,11/7/1996 23:30,seattle,wa,us,sphere,7,7 sec.,Dimly lit group of colored objects hovering over the Woodland Park Zoo emitting light beams similar to spotlights.I was walking my,3/7/1998,47.6063889,-122.3308333
176,12/1/2001 22:20,sioux center,ia,us,unknown,60,1 min. or less,I WAS WATCHING TV WHEN I NOTICE 2 OBJECTS WITH BLUEISH@RED LIGHTS COMEING OVER THE ROOF OUTLINES OF THE HOUSES JUST SOUTH OF MY HOUSE.,12/5/2001,43.0797222,-96.1752778
177,8/24/2013 22:30,o&#39fallon,mo,us,sphere,1200.0,20 minutes,Seven orange orbs in the formation of the Big Dipper that individually hovered and moved across the sky acscending to the atmosphere.,8/30/2013,38.8105556,-90.6997222
178,8/2/2001 23:21,hillsboro,or,us,oval,180.0,3min,Orange satillite enlarges 5 times its size as it flairs to white-blue&#44 then back to original size and color .,8/5/2001,45.5230556,-122.9886111
179,2/26/2001 22:50,levittown,pa,us,light,5,5 seconds,it was mostly clear just a few light clouds.there are a lot of lights around my house so only the brightest stars are visible to the na,3/6/2001,40.155,-74.8291667
180,10/23/2007 20:30,medford,or,us,unknown,300,5 minutes,Changing color&#44 rotating lights with a hazy&#44 &quot;v-shaped&quot; short light beam beneath.,11/28/2007,42.3266667,-122.8744444
181,7/5/2002 22:30,seattle,wa,us,light,1800,30 minutes,Bright light appeared to (perhaps) be hovering closely outside of earth&#39s atmosphere,7/26/2002,47.6063889,-122.3308333
182,7/26/2006 04:30,fresno,ca,us,light,30,30 sec,fresno early morning sighting,10/30/2006,36.7477778,-119.7713889
183,12/28/2013 23:00,maricopa,az,us,light,10,10 seconds,Bright orangish light moving fast and silent right over the house.,1/10/2014,33.0580556,-112.0469444
184,8/9/1974 12:00,spokane,wa,us,other,10.0,10 seconds,I was 11 years old and happened to be in a car with my mom&#44 and we saw a bullet shaped craft with flames comming out of the rear. I hav,6/18/2004,47.6588889,-117.425
185,8/26/2004 22:00,chatsworth,nj,us,unknown,120.0,2 minutes,Object hovers slightly above tree level until it dissappears into the forest,5/24/2005,39.8175,-74.5352778
186,10/6/2002 13:55,union,nj,us,cross,120,2 minutes,At 1:55 p.m. on October 6&#44 I looked toward the east over Union&#44 N.J.&#44 and saw what appeared to be two extremely small&#44 white aircraft t,10/15/2002,40.6975,-74.2636111
187,11/10/2013 21:00,jonesboro,ar,us,rectangle,120,2 minutes,Flying Box with No Marker Lights,11/20/2013,35.8422222,-90.7041667
188,8/12/2005 21:00,mesa,az,us,light,60,60 sec,star takes off&#33,9/2/2005,33.4222222,-111.8219444
189,12/20/2008 19:40,cedar park,tx,us,light,4,3-4 seconds,I observed a brillian&#44 white&#44 ball of light flying at tremendous speed from West to East.,1/10/2009,30.505,-97.82
190,9/2/2007 16:30,louisville,ky,us,sphere,300.0,5 mintues,Two metallic spheres hovering in sky then vanishing as jet plane passes nearby.,3/4/2008,38.2541667,-85.7594444
191,4/19/2010 21:20,cocoa,fl,us,unknown,30,30 secs,Four green lights seen close to the ground while driving,5/12/2010,28.3858333,-80.7422222
192,1/15/2013 02:20,irvington,ny,us,unknown,1200,20 minutes,UFO with colored moving lights and symbols on it,8/30/2013,41.0388889,-73.8655556
193,8/4/2013 02:26,dayton,oh,us,fireball,180.0,3 minutes,Shape changing fireball that hovered close to the ground an flew off with incredible speed,8/30/2013,39.7588889,-84.1916667
194,10/6/2003 22:53,kansas city,mo,us,teardrop,5,5 seconds,the object&#44while lit&#44 flew faster than any plane I&#39ve ever seen.,10/7/2003,39.0997222,-94.5783333
195,9/17/1999 01:00,hinsdale (unincorporated area),il,us,other,3600.0,1 hour,i feared for my life,12/7/2006,41.8008333,-87.9369444
196,10/19/2007 15:00,banks,or,us,sphere,8,8 seconds,SR-71&#39s over Washington County? I dont think so&#33,11/28/2007,45.6188889,-123.1130556
197,10/4/2013 13:00,fowler,ca,us,rectangle,600,10 minutes,Hovered solid black square/rectangle shaped object had no sound and no lights.,10/14/2013,36.6305556,-119.6775
198,1/10/2006 12:30,elmira,ny,us,light,7200,2 hours,My wife noticed it first at 12:30 AM on the porch.  She called me out and I saw it too.  We decided to walk down near the Chemung river,2/14/2006,42.0897222,-76.8080556
199,7/9/2010 01:59,antioch,ca,us,cigar,180,3 min.,07/09/2010&#44 Antioch&#44 CA; oblong&#44 3 min.&#44 luminous red orange&#44 3 x&#39s larger than a small plane&#44 pulsing soft noise&#44strait low flight.,7/10/2010,38.005,-121.8047222
200,8/29/2011 22:50,morgantown,wv,us,triangle,20.0,20 seconds,Y-shaped or triangular object in the sky overhead&#44 traveling westward.,10/10/2011,39.6294444,-79.9561111
201,4/23/2014 22:15,dauphin island,al,us,formation,10,10 seconds,Light formation that extinguished one by one from west to east over the Gulf of Mexico at Dauphin Island&#44 AL,5/2/2014,30.2552778,-88.1097222
202,4/17/2002 20:55,sebastopol,ca,us,light,60,1 min.,two &quot;star-like&quot; objects traveling in parallel,4/25/2002,38.4022222,-122.8227778
203,4/18/2010 20:00,missoula,mt,us,unknown,5,5 seconds,Single steady white light cruising&#44 then tears out into space having an orange glow behind it.,3/16/2012,46.8722222,-113.9930556
204,9/27/2013 05:00,ozark,ar,us,circle,2.0,2 seconds,Yellowish orange orb moving horizonally&#44 low to the ground at a very high rate of speed with no sound&#44 no tail,9/30/2013,35.4869444,-93.8275
205,9/23/2002 21:30,bridgewater (canada),ns,ca,light,900.0,15 minutes,point of light preformed arcing movements and speed impossible for any other aircraft,10/7/2003,44.366667,-64.516667
206,8/13/2011 22:00,dennis port (cape cod),ma,us,unknown,600.0,5 -10 min,Slow moving unusual brilliant liquid white like single object over Cape Cod,8/21/2011,41.6583333,-70.1291667
207,11/10/2012 21:00,kittanning,pa,us,teardrop,2,0:02,I was waiting to cross rte 66 from the east to go west and had noticed what i thought to be something on top of a flag pole&#44but i could,2/4/2013,40.8163889,-79.5222222
208,12/30/2012 20:15,red river,nm,us,sphere,20,20 seconds,Brilliant Blue Orb over Red River&#44 New Mexico - Stunning Movements.,1/10/2014,36.7080556,-105.4055556
209,6/25/2002 23:30,aberdeen,wa,us,circle,15,15seconds,STAR LIKE OBJECT MOVING QUICKLY FROM SW TO NE,7/1/2002,46.9755556,-123.8144444
210,7/29/2007 22:30,chicago,il,us,circle,5,five seconds,Circular flying object moving westward over Chicago,8/7/2007,41.85,-87.65
211,6/28/2007 21:00,seattle,wa,us,other,1200,20 min,Black blob moving over Seattle,8/7/2007,47.6063889,-122.3308333
212,12/2/2009 18:30,san dimas,ca,us,oval,600,10 min or less,Object of animated lights off 210 free in California.,12/12/2009,34.1066667,-117.8058333
213,1/9/2007 07:35,pontiac,mi,us,sphere,1200,20 minutes,..It split into two halves-like a &quot;Pac-Man&quot; mouth.,2/1/2007,42.6388889,-83.2911111
214,8/4/2012 23:05,huntington,in,us,light,180.0,3 minutes,Pink lighted unknown object in sky over Huntington,8/5/2012,40.8830556,-85.4975
215,7/22/2012 02:00,charlotte,mi,us,light,3600,1 hour,Several pulsating lights performing impossible maneuvers in the night sky,8/5/2012,42.5636111,-84.8358333
216,7/5/2000 05:47,seattle,wa,us,light,4,2-4 second,On my way home entering the Ballard bridge I look up in the sky to enjoy the scienery. At the same time I notice a bright green light p,8/19/2000,47.6063889,-122.3308333
217,8/13/1998 03:00,hampton,nh,us,circle,5.0,3-5 seconds,Moon size&#44 like object&#44 quiet&#44 white and bright August 1997-1999 3:00 AM. Any one else?,5/15/2006,42.9375,-70.8394444
218,10/24/2006 04:50,san jose,ca,us,circle,14,14 seconds,At approximately 4:50am a lighted circlular object was spotted streaking across the sky traveling from West to Nortwest and entered my,10/30/2006,37.3394444,-121.8938889
219,10/3/2003 18:45,quesnel (canada),bc,ca,other,480,8 minutes,HBCCUFO CANADIAN REPORT:  An oblong in shape and traveling at an angle of approx: 30 degrees.,10/15/2003,52.983333,-122.483333
220,7/1/1956 16:00,beatrice (14 mi sw of),ne,us,other,120,2 minutes,Large pale silver dome seen over a hill and also near the house of SE Nebraska farm.,7/13/2005,40.2680556,-96.7466667
221,5/28/2008 16:50,lisle,il,us,circle,600,10 minutes,Afternoon sighting of 15+ ufo&#39s that changed colors and were the size of stars in the night sky.,6/12/2008,41.8011111,-88.0747222
222,10/5/2005 21:00,toledo,oh,us,light,2880,48 min,Point source of light observed for 48 min in rapid acceleration and deceleration and apparent stationary flight,10/11/2005,41.6638889,-83.5552778
223,10/28/2011 06:30,anderson,sc,us,light,60,less than 1 min.,Odd light effect in clouds,12/12/2011,34.5033333,-82.6502778
224,6/1/1968 00:00,binghamton,ny,us,disk,2700,half an hour+,UFO saucer seen Binghamton&#44 NY&#44 1968-69,3/4/2008,42.0986111,-75.9183333
225,10/10/2011 21:00,york,pa,us,circle,15,15 seconds,BRIGHT LIT ORB SPEEDS ACROSS S.CENTRAL PA. SKY&#44 MAKING NO SOUND&#44 THEN DISAPPEARS,10/19/2011,39.9625,-76.7280556
226,6/10/2012 22:50,lima,oh,us,circle,120,2 minutes,Bright reddish orange orb shoots across sky with no sound at a high rate of speed at 10:30pm in Lima&#44 oh.,6/14/2012,40.7425,-84.1052778
227,1/3/2013 20:03,weaverville,ca,us,sphere,7,7 seconds,Night sighting and not a convential aircraft,2/4/2013,40.7311111,-122.9408333
228,6/1/1975 00:10,douglas,az,us,circle,1800,30 minutes,F4 Fighter-Intercepters scrambled to intercept object at over 90&#44000 foot altitude,9/2/2005,31.3444444,-109.5447222
229,9/12/2010 21:00,toms river,nj,us,cigar,3.0,3 sec,Cigar shaped haze with two rectangular windows.,11/21/2010,39.9536111,-74.1983333
230,8/19/2012 21:15,porter,in,us,unknown,900.0,15 minutes,I saw an orange fireball surrounded by a white triangle of lights in the sky.,9/24/2012,41.6155556,-87.0741667
231,7/7/2010 23:00,gaston,or,us,circle,180,2-3 minutes,Glowing orange orb in sky,7/10/2010,45.4363889,-123.1383333
232,12/12/2009 18:10,troy,il,us,circle,600,10 min.,2 bright lights near St. Louis that flew in a circular&#44 erratic pattern,2/14/2010,38.7291667,-89.8830556
233,7/31/2006 02:00,san antonio,tx,us,other,300,5 minutes,((HOAX??))  Flying object that looks like a Hawk or Eagle,3/4/2008,29.4238889,-98.4933333
234,6/24/2005 22:50,girard,oh,us,triangle,37800,11/2 hrs,SMALL TRIANGULAR LIGHTS AT HIGH ALTITUDE FLARING BRIGHTLY THEN DIMMING OUT .AFTER FLYING SHORT DISTANCE,7/5/2005,41.1538889,-80.7016667
235,5/1/1998 18:30,new york city (manhattan),ny,us,triangle,600,5 - 10 minutes,Strangely moving craft&#44 zigzagging in the distance that turned out to be a huge triangle with lots of lights when it flew overhead..,1/22/2004,40.7141667,-74.0063889
236,4/16/2009 22:00,fremont,in,us,light,3600,1 hour plus,A star like object that hovered and appeared to change color.,5/12/2009,41.7308333,-84.9327778
237,2/11/2004 06:45,cathedral city,ca,us,circle,150,2.5 minutes,bright round shape object traveling from south to north same area three times at diferen dates around the same hours.,6/4/2004,33.7797222,-116.4644444
238,11/23/2006 18:50,blue springs,mo,us,light,50,<min,Two lighted objects of varying intensity intersect  @ same location in space within 20 seconds of each other.,12/7/2006,39.0169444,-94.2813889
239,5/17/2006 24:00,holland,tx,us,unknown,5,5 seconds,white light  suddenly emitted bright  white light in center yellow on middle and red on outside of emitted circle of  huge   display,7/16/2006,30.8780556,-97.4013889
240,8/21/1994 22:35,circleville,oh,us,triangle,20.0,20 seconds,On Sunday night&#44 August 21&#44 1994&#44 at 10:35p.m.&#44 a triangle-shaped craft was observed flying over U.S. Route 23 in front of the local Du,11/2/1999,39.6005556,-82.9461111
241,12/7/2012 21:25,kingston,ny,us,light,300,5 minutes,Two Lights seen over Hudson River in Kingston&#44 NY on 32 South.,12/12/2013,41.9269444,-73.9977778
242,4/23/2010 20:15,coquitlam (canada),bc,ca,unknown,120,2 min.,Object circling the Moon.  ((NUFORC Note:  Date is wrong.  Possible hoax.  PD)),5/12/2010,49.266667,-122.783333
243,4/13/2005 17:30,redmond,wa,us,changing,420,5-7 minutes,The object moved like a pendulum in mid-air moving upwards&#44 stopping in mid-swing-in front of the clouds.,4/16/2005,47.6741667,-122.1202778
244,11/3/2013 20:00,flagstaff,az,us,changing,1200,20 minutes,Shape in sky disappearing and reappearing.,11/11/2013,35.1980556,-111.6505556
245,9/6/2011 23:30,fountain,co,us,unknown,300.0,5 minutes,5 Red light object floating over Fountain&#44 CO,10/10/2011,38.6822222,-104.7002778
246,4/15/1998 08:00,passaic,nj,us,other,10,10 seconds,I looked out the window at the sky about 8am in the morning. It was perhaps mid April with very puffy white spring clouds set against a,3/21/2003,40.8566667,-74.1288889
247,12/23/1987 22:00,ocala,fl,us,triangle,120,two minutes,Strange transparent objec t with red lights at joints seen around 10 pm moving northeast very slowly.,7/1/2002,29.1869444,-82.1402778
248,2/8/2011 19:15,brockton,ma,us,light,30,30 secs,Three glowing ambers lights flying in a formation over Brockton&#44 MA,2/8/2011,42.0833333,-71.0188889
249,7/9/2001 22:30,mountlake terrace (seattle),wa,us,disk,10,10 seconds,Lynnwood  W.A.  spherical with lights,8/5/2001,47.7883333,-122.3075
250,6/4/2005 23:00,creston,nc,us,flash,120,2 minutes,Fast flying object that zig zagged across the sky.,6/20/2005,36.4277778,-81.6238889
251,9/29/2012 19:58,woodbridge,ct,us,fireball,120.0,2 minutes,Flame-like object in sky,10/30/2012,41.3525,-73.0088889
252,5/29/2012 22:15,summerville,sc,us,fireball,60,1 minute,Large&#44 bright green light accomanied by a deep whirring noise,6/5/2012,33.0183333,-80.1758333
253,11/10/1999 10:35,henderson,ky,us,light,2700,45 minutes,One lighted object that was tracked by aircraft at two different times&#44 th aircraft altered their prior flight pattern.,3/4/2008,37.8361111,-87.59
254,4/17/2009 10:10,toronto (canada),on,ca,circle,1800,30 min,Hovering object flickering overtop Toronto&#33,5/12/2009,43.666667,-79.416667
255,10/10/2004 19:00,ripley,ny,us,circle,900,15 min,7 red/orange stationary objects appeared over Lake Erie on 10/10/04 for 15 minutes and then all disappeared at once.,10/27/2004,42.2669444,-79.7108333
256,4/24/2000 22:30,chino hills,ca,us,circle,30,30sec.,A big green circle came out of the sky suddenly and then desinigrated just above me,4/26/2000,33.8936111,-117.7263889
257,6/14/1974 05:30,la mesa,ca,us,triangle,120,2 min,Triangular object with three steady red lights&#44 one on each corner&#44 hovering over Miramar NAS,4/2/1999,32.7677778,-117.0222222
258,1/17/2006 06:00,orange grove,tx,us,rectangle,60,less than a minute,strange yellow 2 x 4 shaped object floating off the ground,2/1/2007,27.9563889,-97.9366667
259,12/20/2012 20:00,bremerton,wa,us,diamond,14400,4 hours,Large object in a possibly diamond shape emitting bright orange-yellow lights on the horizon over Puget Sound.,12/21/2012,47.5675,-122.6313889
260,6/8/2003 21:40,manchester,nh,us,light,300,5 min.,Flashing neon green lights across the night sky,6/10/2003,42.9955556,-71.4552778
261,3/11/2014 20:36,des moines,ia,us,disk,33,33 seconds,Disc shaped object flashing red and blue lights.,3/18/2014,41.6005556,-93.6088889
262,9/6/2005 21:30,coronado,ca,us,cigar,900.0,15 minutes,4 bright flashing light seen at a very high altitude in south Coronado bay area,10/11/2005,32.6858333,-117.1822222
263,7/1/1974 20:00,mishawaka,in,us,circle,300,5 minutes,I was a pizza delivery person back then&#44 working for Rossina Pizza in Mishawaka&#44 Indiana(they still are open). I was driving westbound,4/16/2005,41.6619444,-86.1586111
264,3/22/2013 05:35,madison,wi,us,disk,30,30 seconds,White saucer seen near Madison.,5/15/2013,43.0730556,-89.4011111
265,8/10/2007 21:00,greenwich,ny,us,triangle,480,6-8 minutes,With friends in field&#44 saw object illuminate and hover&#44 flash and then take off quite fast.,8/14/2007,43.0905556,-73.4991667
266,11/21/2012 11:18,springfield,ma,us,unknown,3600,1 hour,Strange Flashing White and Green Bright lights ascending and hovering,12/20/2012,42.1013889,-72.5902778
267,7/11/2008 17:30,midland,wa,us,circle,1800,30 min,Two bright circles staying consistantly the same distance from each other were spotted above my location. They rose into the sky moving,8/12/2008,47.1672222,-122.4036111
268,9/4/2004 09:00,glendale,az,us,teardrop,12.0,10-12 seconds,Silent black tear-drop shaped craft going above mach speed.,9/9/2004,33.5386111,-112.1852778
269,12/4/2013 16:30,hoffman estates,il,us,flash,180,3 minutes,Giant bursts of light fill sky.,12/5/2013,42.0427778,-88.0797222
270,10/8/2003 22:00,sylmar,ca,us,light,10,10 seconds,saw a light suddenly shoot down from a flying object towards the groud.,10/15/2003,34.3077778,-118.4483333
271,11/1/2013 19:11,toms brook,va,us,sphere,2580,43 minutes,Erratic moving&#44 flashing sphere of multicolored lights lingered over the WV border.,11/11/2013,38.9463889,-78.4394444
272,2/1/2012 23:00,eugene,or,us,unknown,360,6 minutes,I went outside to put the garbage and recycling containers back by the side of my house and as i was doing that i looked up over the to,2/3/2012,44.0522222,-123.0855556
273,3/31/2009 19:50,storrs,ct,us,light,1800,30 minutes,UFO over UCONN,4/14/2009,41.8083333,-72.25
274,9/10/2012 21:00,layton,ut,us,cone,3600.0,1 hour,Cone hovered above layton ut for one hour,9/24/2012,41.0602778,-111.9702778
275,9/30/2011 19:35,knoxville,tn,us,oval,300.0,5 min,West Knoxville Bright Blue Object,10/10/2011,35.9605556,-83.9208333
276,5/7/2014 21:00,theodore,al,us,circle,120,few minutes,Driving home and entered my neighborhood and saw 2 blinking lights in sky &#44 to close to be airplanes. Then later was outside with 2 oth,5/8/2014,30.5475,-88.1752778
277,7/15/2005 22:15,halifax (canada),ns,ca,triangle,240,4 minutes,There was a whilte glow around it&#44 shiny metallic material could be seen through the glow&#44 it was low enough to see good.,9/2/2005,44.65,-63.6
278,3/31/2009 00:11,new york city,ny,us,unknown,2,2 seconds,12:11am small greenish streak moving very fast through the sky over Lower Manhattan&#44 traveling west,4/14/2009,40.7141667,-74.0063889
279,1/24/2008 19:15,powder springs,ga,us,light,900,15 minutes,bright light &quot;fell&quot; from northeast sky&#44 where a circle of lights hovered for 15 minutes,2/14/2008,33.8594444,-84.6838889
280,8/3/2013 22:00,las vegas,nv,us,light,2700.0,45 minutes,Line of 9 light orbs hovered over.Las Vegas NV 8/3/13.,8/30/2013,36.175,-115.1363889
281,11/16/2003 11:30,los angeles,ca,us,other,1800,30 minutes,Stars in the mid-day sun.,11/26/2003,34.0522222,-118.2427778
282,6/20/2012 22:24,indianapolis,in,us,light,60,1 minute,Red flame flying through the sky.,7/4/2012,39.7683333,-86.1580556
283,4/23/2006 21:15,waynesboro,pa,us,triangle,12,12 seconds,Crudely &quot;cloaked&quot; bomerang object flying do West across Pennsylvania night sky,5/15/2006,39.7558333,-77.5780556
284,7/1/1995 04:30,bellevue,ne,us,unknown,60,1 minute,Silent craft flying extremely low dropping flaming embers,4/1/2000,41.1366667,-95.8905556
285,10/23/2010 21:00,phoenix,az,us,light,900,15min,Two falling balls of light---North Phoenix on 10-23-10,11/21/2010,33.4483333,-112.0733333
286,10/17/2004 18:15,raleigh,nc,us,formation,300,5 minutes,Looked like rectangle parachutes but nobody was under the canopies&#44 objects never desended.,10/27/2004,35.7719444,-78.6388889
287,8/1/2009 23:00,easton,md,us,sphere,1800,30 minutes,Three baketball sized orbs floating 2-3 feet above the ground hovering stationary and silent and glowing red,5/13/2012,38.7741667,-76.0766667
288,8/4/2013 20:12,knappa,or,us,circle,600.0,10+ minutes,Multiple lights in sky.,8/30/2013,46.1852778,-123.5847222
289,10/10/2005 23:00,hendersonville,nc,us,light,600,10 minutes,Last night&#44 October 10&#44 at about 11:00PM for about ten minutes I observed a peculiar point source light in the Eastern sky. It was at a,10/11/2005,35.3186111,-82.4611111
290,3/2/2012 20:00,st. petersburg,fl,us,circle,13,13 seconds,Bright star like object moving at a slow rate across the night sky. Within 13 seconds it slowly began to get smaller and disappeared. N,3/13/2012,27.7705556,-82.6794444
291,9/4/2008 21:00,spokane valley,wa,us,triangle,900.0,15 min.,Saw two triangular shaped objects.  Yellow to bright white.  Came up over the horizon northeast and headed   west  and upward very brig,10/31/2008,47.6733333,-117.2383333
292,6/14/2012 20:15,dana point,ca,us,changing,1500,25 minutes,Large erratically moving object over Dana Point&#44 CA,6/20/2012,33.4669444,-117.6972222
293,8/19/2004 21:00,pittsburgh,pa,us,light,900.0,15 minutes,I saw faint&#44 white lights zipping around high in the sky during a cloudy night.,9/1/2004,40.4405556,-79.9961111
294,5/27/2012 00:00,smithville,mo,us,fireball,60,1 minute,No sound flying low small fireball type,6/5/2012,39.3869444,-94.5808333
295,5/16/2013 19:10,clovis,ca,us,other,10,10 seconds,Dark three curved shaped object at Clovis&#44 CA,6/2/2013,36.8252778,-119.7019444
296,7/14/1963 21:30,hornell,ny,us,unknown,600,10 minutes,Bright object moving across the sky then stopping and going back the way it came.,7/4/2012,42.3277778,-77.6613889
297,9/12/2001 22:00,louisville (ky)/henryville (in),ky,us,other,25200.0,6-7 hours,ufos watching over america??,10/12/2001,38.2541667,-85.7594444
298,2/25/2009 15:17,seattle,wa,us,oval,60,1 minute,A glowing orange elongated orb was seen by 2 men to be moving swiftly over Seattle&#44 Washington during daylight.,3/19/2009,47.6063889,-122.3308333
299,7/24/2013 02:31,lybrook,nm,us,egg,60,1 minute,A triangular star cluster shot off an egg shaped craft southwest on 7/24/13 at 2:31 in the morning over Lybrook NM.,8/30/2013,36.2333333,-107.5616667
300,8/18/2005 19:45,winooski,vt,us,changing,120.0,2 min,Delta or Vee shaped&#44 silent&#44 travelling west to east from Lake Champlain towards New Hampshire,10/11/2005,44.4913889,-73.1861111
301,1/9/2014 08:10,tampa,fl,us,unknown,300,5 minutes,Weird brownish manmade looking object in sky.,1/10/2014,27.9472222,-82.4586111
302,10/24/2013 22:30,ogilvie,mn,us,light,900,15 minutes,Orange light above trees.,11/11/2013,45.8322222,-93.4261111
303,6/30/1993 20:00,new york city (yonkers),ny,us,other,150,2.5min.,V shaped lights.huge.noisless.flying very slow,10/10/2011,40.7141667,-74.0063889
304,6/3/2003 23:34,grand junction,co,us,light,5,5 seconds,I was in clifton just leaving my sisters place when a bright light in the sky cuaght my attention.,6/10/2003,39.0638889,-108.55
305,3/1/2008 17:30,georgetown,ma,us,unknown,300,5min,At about 17:30&#44 I went outside of restraunt&#44to have a cigerette&#44and looking up at the sky&#44I noticed a silver object heading North.It wa,3/4/2008,42.725,-70.9916667
306,3/11/2007 04:25,north hollywood (san fernando valley),ca,us,sphere,73800,2 1/2hrs,there was a glowin sphere which is still visible right now that is still swayin back and forth in the distance,4/27/2007,34.1722222,-118.3780556
307,6/5/2013 21:00,greensboro,nc,us,light,300,5 minutes,Orange flaming sphere seen at night,7/3/2013,36.0725,-79.7922222
308,9/10/2012 20:20,niagara falls,ny,us,fireball,300.0,5 minutes,A bright yellow point of light surrounded by distinct orange sphere moving north to south.,9/24/2012,43.0944444,-79.0569444
309,3/12/2003 21:00,madbury,nh,us,light,300,5 minutes,I was driving home one night&#44 thursday night and I saw a orange orb at about 9 pm.Well I took it as a planet&#44 or maybe a star. It l,3/21/2003,43.1691667,-70.9244444
310,6/25/2010 22:20,granger,in,us,light,60,1 minute,Bright red light over Granger&#44 IN,7/6/2010,41.7533333,-86.1108333
311,8/22/2006 06:20,clark,nj,us,circle,300.0,5 minutes,3 pankake looking round ufos floating and circling as they made their way slowly across sky,10/30/2006,40.6408333,-74.3111111
312,11/15/1999 05:50,yuma,az,us,circle,600,10 minutes,I awoke at approx. 5:30 am and was going into San Luis Mexico for dental work and saw a circular object in the sky.,11/23/1999,32.7252778,-114.6236111
313,11/24/2005 21:00,centreville,md,us,light,90,several hours,red lights&#44 soundless&#44 hover or move with blistering speed.,12/16/2005,39.0416667,-76.0666667
314,8/16/1962 12:00,haverhill,ma,us,disk,300.0,5 minutes,Two Silver Disks observed in broad daylight.,1/31/2011,42.7761111,-71.0777778
315,11/9/2013 21:00,severna park,md,us,sphere,900,15 minutes,Silent red spheres moving in single file across the sky in Severna Park Maryland.,11/11/2013,39.0702778,-76.5455556
316,11/1/1983 20:00,citrus heights,ca,us,disk,60,1 minute,bright orange saucer went from stationary&#44 dropped and then shot back up in a v motion then disappeared.,6/3/2010,38.7072222,-121.28
317,7/20/2002 22:00,olivet,mi,us,unknown,600,10 minutes,A bright light  that first hovered then ascended up and north...,3/21/2003,42.4413889,-84.9241667
318,7/4/2008 21:30,elgin,il,us,disk,420,7 minutes,Four orange/reddish objects seen and video taped,8/12/2008,42.0372222,-88.2811111
319,7/17/1998 02:02,jacksonville (i-10 milemarker 238&#44 heading e),fl,us,other,120,2 min,Object was Metalic shinning silver saucer shaped with arch hanging down on the left and right side.  Me and my wife observed for about,9/13/2002,30.3319444,-81.6558333
320,10/16/2005 10:00,porterville,ca,us,circle,1200,15-20 mins,big red ball like object with littler star like objects zooming around,10/20/2005,36.0652778,-119.0158333
321,9/15/1980 22:00,elko,nv,us,light,15300.0,15 mins to 4 hrs,Spotted aluminum-colored square- shaped blinking lights which disappeared&#44 car stopped &amp; red/orange ball followed us.,12/19/2003,40.8325,-115.7622222
322,12/21/2004 06:30,san marcos (escondido&#44 rancho bernardo),ca,us,other,1200,20 mins,enormous size blue ufo followed over 3 cities,1/11/2005,33.1433333,-117.1652778
323,11/20/1979 07:10,detroit,mi,us,light,1800,30 minutes,Obserbed bright disc in upper right quadrant of windshield as I was backing out of my drive&#44 car was facing sough. As I drove eastward,3/9/2004,42.3313889,-83.0458333
324,6/1/1986 19:00,new york city (brooklyn),ny,us,triangle,180,3min.,looking at night sky  a large spaceship the size of football field passed overhead humming . A chill ran through me.,1/3/2001,40.7141667,-74.0063889
325,3/16/2013 21:00,belmont,nc,us,other,50,50 seconds,Round object shooting across the sky&#44 low &#44very bright light&#44 a blue white color&#44&#44 seen by 2 people.,5/15/2013,35.2427778,-81.0375
326,11/9/2012 01:00,kutztown,pa,us,unknown,40,30-40 seconds,Three orbs in Kutztown&#44 gone within seconds.,11/19/2012,40.5172222,-75.7777778
327,7/8/2005 01:00,chicago heights,il,us,rectangle,120,2 minutes,rectangular bright object in a hover shots straight up and disappears.,9/2/2005,41.5061111,-87.6355556
328,12/2/2013 22:10,austin,tx,us,fireball,60,~1 minute,I was driving on the highway when I noticed a rather large green &#39star&#39 in the sky. They started as small green balls and traveling qui,12/5/2013,30.2669444,-97.7427778
329,11/13/2000 18:30,denton,tx,us,triangle,120,2 minutes,Black triangle spotted over highway in the night sky,12/2/2000,33.2147222,-97.1327778
330,10/7/2002 21:30,melbourne village,fl,us,disk,20,20sec.,approx 20 min. after a large military transport passed over&#44 six disk shaped&#44bright white objects in a wide v formation.they were at ab,10/15/2002,28.085,-80.6666667
331,8/16/2001 21:30,palisades park,nj,us,oval,300.0,about 5 minutes,It was oval shape with cap (full of white color lights).,8/20/2001,40.8480556,-73.9980556
332,8/20/1994 19:00,normandy beach,nj,us,triangle,4.0,4 seconds,clear skies&#44 daylight&#44a triangle shaped object moving faster then the speed of sound without a any sound then divided into 2 seperate .,7/13/2005,40.0025,-74.0608333
333,7/16/2007 22:30,spokane,wa,us,unknown,45,30-45 seconds,White dot over Spokane WA moving in extreme angles instantly,8/7/2007,47.6588889,-117.425
334,5/5/1999 22:30,san jose,ca,us,light,30,30 seconds,First seen from my backyard: a bright red light with a strobing white light.  It looked about 1/2 the size of Mars and was flying in a,5/24/1999,37.3394444,-121.8938889
335,9/18/2013 22:30,ketchum,id,us,circle,90.0,1.5 minutes,Bright orange light in the sky over the Wood River Valley&#44 Hailey Idaho,10/14/2013,43.6808333,-114.3627778
336,7/20/2009 22:15,gig harbor,wa,us,light,60,1 minute,Guy outside yells &quot;Come look at this&quot; I go outside. Silent flying light&#44 altitude higher than small local planes&#44 flying east to west.,8/5/2009,47.3294444,-122.5788889
337,2/13/2008 22:04,cape coral,fl,us,light,60,60 seconds,3 balls of light&#44 moving in a weird triangle formation.,2/14/2008,26.5625,-81.9497222
338,7/6/2009 01:00,columbia,md,us,unknown,30,30 seconds,Light solid blue semi-circle of light projecting onto bedroom floor.,8/5/2009,39.2402778,-76.8397222
339,6/13/2013 22:15,myrtle beach,sc,us,formation,15,15 seconds,Orange rotating lights over myrtle beach.,7/3/2013,33.6888889,-78.8869444
340,1/10/2000 22:00,erie (area),pa,us,unknown,60,less than a minute,dark object with strobe/beacon.stationary over Interstate 90 near Erie&#44PA,12/7/2006,42.1291667,-80.0852778
341,2/22/2014 23:15,quakertown,pa,us,circle,12,12 seconds,Red pulsing object traveling at high speed execute a 90 degree turn.,2/27/2014,40.4416667,-75.3419444
342,7/30/2004 20:25,truckee,ca,us,other,300,5 min,no sound and fairly close,8/11/2004,39.3280556,-120.1822222
343,6/20/2008 12:30,hayden,co,us,disk,15,10-15seconds,Observered unmistakeable very bright metallic saucer/disc hovering and moving slightly,7/5/2008,40.4919444,-107.2569444
344,7/20/2002 21:00,splendora,tx,us,oval,6,6 seconds,IT COMPLETELY COVERED OUR WINDSHIELD AND IN IT THERE WERE APPROXIMATELY 30-50 BRIGHT  LIGHTS&#44 EVENLY SPACED&#44 SHINING BRIGHTLY.  WHEN IT,7/16/2003,30.2327778,-95.1608333
345,1/29/2014 20:00,fort wayne,in,us,light,30,30 seconds,Two white lights seen stationary&#44 then &amp;quot;parted&amp;quot; and traveled out of sight.,1/30/2014,41.1305556,-85.1288889
346,8/2/2009 23:00,listowel (canada),on,ca,flash,30.0,2 an a half minutes,large ball of light seen over listowel ontario,8/27/2009,43.733333,-80.966667
